{"stores": [{"district_code": "ho-chi-minh", "name": "CHTT Th\u00e1p M\u01b0\u1eddi", "district": "Th\u00e0nh ph\u1ed1 H\u1ed3 Ch\u00ed Minh", "address": "56 - 58 - 60 - 62 Th\u00e1p M\u01b0\u1eddi, P.2, Q.6, TP.HCM", "opening_hours": "", "phone": "028.3950 5536", "lat": "10.768468", "lng": "106.680429"}, {"district_code": "ho-chi-minh", "name": "CHTT B\u00e0 Chi\u1ec3u", "district": "Th\u00e0nh ph\u1ed1 H\u1ed3 Ch\u00ed Minh", "address": "1 H\u1ed3ng B\u00e0ng, P.1, Q.B\u00ecnh Th\u1ea1nh, TP.HCM", "opening_hours": "", "phone": "028.3843 4354", "lat": "", "lng": ""}, {"district_code": "ho-chi-minh", "name": "CHTT Quang Trung", "district": "Th\u00e0nh ph\u1ed1 H\u1ed3 Ch\u00ed Minh", "address": "636 Quang Trung, P11, Q.G\u00f2 V\u1ea5p, TP.HCM", "opening_hours": "", "phone": "028.3989 3252", "lat": "10.835051", "lng": "106.663941"}, {"district_code": "ho-chi-minh", "name": "CHTT Hu\u1ef3nh T\u1ea5n Ph\u00e1t", "district": "Th\u00e0nh ph\u1ed1 H\u1ed3 Ch\u00ed Minh", "address": "448, Hu\u1ef3nh T\u1ea5n Ph\u00e1t, P. B\u00ecnh Thu\u1eadn, Qu\u1eadn 7, TP.HCM", "opening_hours": "", "phone": "028.3773 8296", "lat": "10.768468", "lng": "106.680429"}, {"district_code": "ho-chi-minh", "name": "CHTT Nguy\u1ec5n \u0110\u00ecnh Chi\u1ec3u", "district": "Th\u00e0nh ph\u1ed1 H\u1ed3 Ch\u00ed Minh", "address": "668-670 Nguy\u1ec5n \u0110\u00ecnh Chi\u1ec3u P.3 , Q.3, TP.HCM", "opening_hours": "", "phone": "028.3833.9841", "lat": "", "lng": ""}, {"district_code": "ho-chi-minh", "name": "CHTT Ph\u1ea1m H\u00f9ng", "district": "Th\u00e0nh ph\u1ed1 H\u1ed3 Ch\u00ed Minh", "address": "C5/20Ph\u1ea1m H\u00f9ng, X\u00e3 B\u00ecnh H\u01b0ng, Huy\u1ec7n B\u00ecnh Ch\u00e1nh, TP.HCM", "opening_hours": "", "phone": "028.3758 0477", "lat": "", "lng": ""}, {"district_code": "ho-chi-minh", "name": "CHTT Tr\u1ea7n H\u01b0ng \u0110\u1ea1o", "district": "Th\u00e0nh ph\u1ed1 H\u1ed3 Ch\u00ed Minh", "address": "606B Tr\u1ea7n H\u01b0ng \u0110\u1ea1o, P.2, Q.5, TP.HCM", "opening_hours": "", "phone": "028.3924 6403", "lat": "", "lng": ""}, {"district_code": "ho-chi-minh", "name": "CHTT T\u00e2n M\u1ef9", "district": "Th\u00e0nh ph\u1ed1 H\u1ed3 Ch\u00ed Minh", "address": "12 T\u00e2n M\u1ef9, P.T\u00e2n Ph\u00fa, Q.7, TP.HCM", "opening_hours": "", "phone": "028.3775 3624", "lat": "", "lng": ""}, {"district_code": "ho-chi-minh", "name": "CHTT L\u00ea V\u0103n S\u1ef9", "district": "Th\u00e0nh ph\u1ed1 H\u1ed3 Ch\u00ed Minh", "address": "368-370 L\u00ea V\u0103n S\u1ef9, P.2, Q.T\u00e2n B\u00ecnh, TP,HCM", "opening_hours": "", "phone": "028.3991.4785", "lat": "10.79814", "lng": "106.663504"}, {"district_code": "ho-chi-minh", "name": "CHTT L\u00ea V\u0103n Vi\u1ec7t", "district": "Th\u00e0nh ph\u1ed1 H\u1ed3 Ch\u00ed Minh", "address": "255 L\u00ea V\u0103n Vi\u1ec7t, P.Hi\u1ec7p Ph\u00fa, Q.9, TP.HCM", "opening_hours": "", "phone": "0283.730.7078", "lat": "", "lng": ""}, {"district_code": "ho-chi-minh", "name": "CHTT Coop Phan V\u0103n Tr\u1ecb", "district": "Th\u00e0nh ph\u1ed1 H\u1ed3 Ch\u00ed Minh", "address": "543/1 Phan V\u0103n Tr\u1ecb, P.7, Q.G\u00f2 V\u1ea5p, TP.HCM", "opening_hours": "", "phone": "028.625.76348", "lat": "", "lng": ""}, {"district_code": "ho-chi-minh", "name": "CHTT V\u00f5 V\u0103n Ng\u00e2n", "district": "Th\u00e0nh ph\u1ed1 H\u1ed3 Ch\u00ed Minh", "address": "290 V\u00f5 V\u0103n Ng\u00e2n, P.B\u00ecnh Th\u1ecd, Q.Th\u1ee7 \u0110\u1ee9c, TP.HCM", "opening_hours": "", "phone": "028.37225496", "lat": "", "lng": ""}, {"district_code": "ho-chi-minh", "name": "CHTT Nguy\u1ec5n \u1ea2nh Th\u1ee7 1", "district": "Th\u00e0nh ph\u1ed1 H\u1ed3 Ch\u00ed Minh", "address": "1A/A Nguy\u1ec5n \u1ea2nh Th\u1ee7, P.Trung M\u1ef9 T\u00e2y, Qu\u1eadn 12, TP.HCM", "opening_hours": "", "phone": "028.3883.4478", "lat": "", "lng": ""}, {"district_code": "ho-chi-minh", "name": "CHTT Qu\u1ed1c l\u1ed9 50", "district": "Th\u00e0nh ph\u1ed1 H\u1ed3 Ch\u00ed Minh", "address": "A24/22, \u1ea4p 1, X\u00e3 B\u00ecnh H\u01b0ng, Huy\u1ec7n B\u00ecnh Ch\u00e1nh, TP.HCM", "opening_hours": "", "phone": "028.3758.4768", "lat": "", "lng": ""}, {"district_code": "ho-chi-minh", "name": "CHTT Nguy\u1ec5n \u1ea2nh Th\u1ee7 2", "district": "Th\u00e0nh ph\u1ed1 H\u1ed3 Ch\u00ed Minh", "address": "44A1 Nguy\u1ec5n \u1ea2nh Th\u1ee7,P.Hi\u1ec7p Th\u00e0nh, Qu\u1eadn 12, TP.HCM", "opening_hours": "", "phone": "028.3717.4789", "lat": "", "lng": ""}, {"district_code": "ho-chi-minh", "name": "CHTT Tr\u01b0\u1eddng Chinh", "district": "Th\u00e0nh ph\u1ed1 H\u1ed3 Ch\u00ed Minh", "address": "593 Tr\u01b0\u1eddng Chinh, Ph\u01b0\u1eddng T\u00e2n S\u01a1n Nh\u00ec, Qu\u1eadn T\u00e2n Ph\u00fa, TP.HCM", "opening_hours": "", "phone": "0283.849.8181", "lat": "", "lng": ""}, {"district_code": "ho-chi-minh", "name": "CHTT H\u00f2a B\u00ecnh", "district": "Th\u00e0nh ph\u1ed1 H\u1ed3 Ch\u00ed Minh", "address": "250 H\u00f2a B\u00ecnh, P.Hi\u1ec7p T\u00e2n, Q.T\u00e2n Ph\u00fa, TP.HCM", "opening_hours": "", "phone": "0286.267.5246", "lat": "", "lng": ""}, {"district_code": "ho-chi-minh", "name": "CHTT Nguy\u1ec5n Th\u1ecb \u0110\u1ecbnh", "district": "Th\u00e0nh ph\u1ed1 H\u1ed3 Ch\u00ed Minh", "address": "161 Nguy\u1ec5n Th\u1ecb \u0110\u1ecbnh, khu ph\u1ed1 2, ph\u01b0\u1eddng B\u00ecnh Tr\u01b0ng T\u00e2y, qu\u1eadn 2, TP.HCM", "opening_hours": "", "phone": "", "lat": "", "lng": ""}, {"district_code": "ho-chi-minh", "name": "CHTT T\u1ec9nh l\u1ed9 10", "district": "Th\u00e0nh ph\u1ed1 H\u1ed3 Ch\u00ed Minh", "address": "615-617 T\u1ec9nh l\u1ed9 10, khu ph\u1ed1 2, ph\u01b0\u1eddng B\u00ecnh Tr\u1ecb \u0110\u00f4ng, qu\u1eadn B\u00ecnh T\u00e2n, TP.HCM", "opening_hours": "", "phone": "028.37515856", "lat": "", "lng": ""}, {"district_code": "ha-noi", "name": "CHTT Ch\u00f9a B\u1ed9c", "district": "Th\u00e0nh ph\u1ed1 H\u00e0 N\u1ed9i", "address": "25 Ch\u00f9a B\u1ed9c, Qu\u1eadn \u0110\u1ed1ng \u0110a, H\u00e0 N\u1ed9i", "opening_hours": "", "phone": "024.8528.635", "lat": "", "lng": ""}, {"district_code": "ha-noi", "name": "CHTT C\u1ea7u Gi\u1ea5y", "district": "Th\u00e0nh ph\u1ed1 H\u00e0 N\u1ed9i", "address": "352 C\u1ea7u Gi\u1ea5y, P.D\u1ecbch V\u1ecdng, Q.C\u1ea7u Gi\u1ea5y, H\u00e0 N\u1ed9i", "opening_hours": "", "phone": "0243.2121.891\u202c", "lat": "", "lng": ""}, {"district_code": "ha-noi", "name": "CHTT T\u00f4 Hi\u1ec7u", "district": "Th\u00e0nh ph\u1ed1 H\u00e0 N\u1ed9i", "address": "40 T\u00f4 Hi\u1ec7u- H\u00e0 \u0110\u00f4ng - TP H\u00e0 N\u1ed9i", "opening_hours": "", "phone": "0243.352.2887", "lat": "", "lng": ""}, {"district_code": "ha-noi", "name": "CHTT B\u1ea1ch Mai", "district": "Th\u00e0nh ph\u1ed1 H\u00e0 N\u1ed9i", "address": "P. B\u1ea1ch Mai, Q. Hai B\u00e0 Tr\u01b0ng, TP H\u00e0 N\u1ed9i.", "opening_hours": "", "phone": "0243.627.7185", "lat": "", "lng": ""}, {"district_code": "ha-noi", "name": "CHTT H\u00e0 Huy T\u1eadp", "district": "Th\u00e0nh ph\u1ed1 H\u00e0 N\u1ed9i", "address": "91 H\u00e0 Huy T\u1eadp, Th\u1ecb tr\u1ea5n Y\u00ean Vi\u00ean, Huy\u1ec7n Gia L\u00e2m, H\u00e0 N\u1ed9i", "opening_hours": "", "phone": "02466.509.097", "lat": "", "lng": ""}, {"district_code": "da-nang", "name": "CHTT420 H\u00d9NG V\u01af\u01a0NG", "district": "Th\u00e0nh ph\u1ed1 \u0110\u00e0 N\u1eb5ng", "address": "420-422 H\u00f9ng V\u01b0\u01a1ng-Tp \u0110\u00e0 N\u1eb5ng", "opening_hours": "", "phone": "2363866879", "lat": "", "lng": ""}, {"district_code": "da-nang", "name": "CHTT LI\u00caN CHI\u1ec2U", "district": "Th\u00e0nh ph\u1ed1 \u0110\u00e0 N\u1eb5ng", "address": "14 Nguy\u1ec5n \u0110\u00ecnh Tr\u1ecdng - TP \u0110\u00e0 N\u1eb5ng", "opening_hours": "", "phone": "2363740744", "lat": "", "lng": ""}, {"district_code": "da-nang", "name": "CHTT \u0110\u00c0 N\u1eb4NG 3", "district": "Th\u00e0nh ph\u1ed1 \u0110\u00e0 N\u1eb5ng", "address": "421 Ho\u00e0ng Di\u1ec7u- TP.\u0110\u00e0 N\u1eb5ng", "opening_hours": "", "phone": "2363550848", "lat": "", "lng": ""}, {"district_code": "da-nang", "name": "CHTT \u0110\u00e0 N\u1eb5ng 4", "district": "Th\u00e0nh ph\u1ed1 \u0110\u00e0 N\u1eb5ng", "address": "282 L\u00ea Du\u1ea9n, P. T\u00e2n Ch\u00ednh, TP. \u0110\u00e0 N\u1eb5ng", "opening_hours": "", "phone": "", "lat": "", "lng": ""}, {"district_code": "an-giang", "name": "CHTT H\u00c0 HO\u00c0NG H\u1ed4- LONG XUY\u00caN", "district": "Th\u00e0nh ph\u1ed1 An Giang", "address": "525-527 H\u00e0 Ho\u00e0ng H\u1ed5-  M\u1ef9 Xuy\u00ean - An giang", "opening_hours": "", "phone": "02963.944.819", "lat": "", "lng": ""}, {"district_code": "an-giang", "name": "CHTT TR\u1ea6N H\u01afNG \u0110\u1ea0O- LONG XUY\u00caN", "district": "Th\u00e0nh ph\u1ed1 An Giang", "address": "162 \u0110\u01b0\u1eddng Tr\u1ea7n H\u01b0ng \u0110\u1ea1o, Ph\u01b0\u1eddng M\u1ef9 B\u00ecnh, Tp. Long Xuy\u00ean, T\u1ec9nh An Giang", "opening_hours": "", "phone": "02963.989.619", "lat": "", "lng": ""}, {"district_code": "an-giang", "name": "CHTT CH\u00c2U \u0110\u1ed0C", "district": "Th\u00e0nh ph\u1ed1 An Giang", "address": "64 \u0110\u1ed1ng \u0110a ,Ch\u00e2u Ph\u00fa A,TP Ch\u00e2u \u0110\u1ed1c-An Giang", "opening_hours": "", "phone": "02963.866.522", "lat": "", "lng": ""}, {"district_code": "bac-lieu", "name": "CHTT B\u1ea0C LI\u00caU", "district": "Th\u00e0nh ph\u1ed1 B\u1ea1c Li\u00eau", "address": "B2 L\u00f4 B , Tr\u1ea7n Ph\u00fa, Ph\u01b0\u1eddng 3 ,TP B\u1ea1c Li\u00eau", "opening_hours": "", "phone": "02916.557.979", "lat": "", "lng": ""}, {"district_code": "bac-giang", "name": "CHTT B\u1eafc Giang", "district": "Th\u00e0nh ph\u1ed1 B\u1eafc Giang", "address": "S\u1ed1 145 \u0110\u01b0\u1eddng L\u00ea L\u1ee3i \u2013 P. L\u00ea L\u1ee3i \u2013 TP. B\u1eafc Giang \u2013 T\u1ec9nh B\u1eafc Giang", "opening_hours": "", "phone": "0204.355.5985\u202c", "lat": "", "lng": ""}, {"district_code": "bac-ninh", "name": "CHTT B\u1eafc Ninh", "district": "Th\u00e0nh ph\u1ed1 B\u1eafc Ninh", "address": "S\u1ed1 nh\u00e0 108 \u0110\u01b0\u1eddng Nguy\u1ec5n Cao, P.Ninh X\u00e1, TP. B\u1eafc Ninh, T\u1ec9nh B\u1eafc Ninh.", "opening_hours": "", "phone": "0222.651.6968", "lat": "", "lng": ""}, {"district_code": "ben-tre", "name": "CHTT B\u1ebfn Tre", "district": "Th\u00e0nh ph\u1ed1 B\u1ebfn Tre", "address": "298A - 299 \u0110\u1ea1i L\u1ed9 \u0110\u1ed3ng Kh\u1edfi, Kh\u00f3m 3, P.Ph\u00fa T\u00e2n, TP.B\u1ebfn Tre, T\u1ec9nh B\u1ebfn Tre", "opening_hours": "", "phone": "02753.511.018", "lat": "", "lng": ""}, {"district_code": "binh-duong", "name": "CHTT Coop B\u00ecnh D\u01b0\u01a1ng", "district": "Th\u00e0nh ph\u1ed1 Th\u1ee7 D\u1ea7u M\u1ed9t", "address": "\u0110\u01b0\u1eddng 30/04, P.Ch\u00e1nh Ngh\u0129a, TP,T H\u1ee6 D\u1ea7u M\u1ed9t, T\u1ec9nh B\u00ecnh D\u01b0\u01a1ng", "opening_hours": "", "phone": "0274.3818.511", "lat": "", "lng": ""}, {"district_code": "binh-duong", "name": "CHTT Nguy\u1ec5n Th\u00e1i H\u1ecdc", "district": "Th\u00e0nh ph\u1ed1 Th\u1ee7 D\u1ea7u M\u1ed9t", "address": "22-24 Nguy\u00ea\u0303n Tha\u0301i Ho\u0323c, P.Phu\u0301 C\u01b0\u01a1\u0300ng, TP.Th\u1ee7 D\u1ea7u M\u1ed9t, T\u1ec9nh B\u00ecnh D\u01b0\u01a1ng", "opening_hours": "", "phone": "2743.855316", "lat": "", "lng": ""}, {"district_code": "binh-dinh", "name": "CHTT B\u00ccNH \u0110\u1ecaNH 1", "district": "Th\u00e0nh ph\u1ed1 Quy Nh\u01a1n", "address": "175-177 T\u0103ng B\u1ea1t H\u1ed5, TP Quy Nh\u01a1n, B\u00ecnh \u0110\u1ecbnh", "opening_hours": "", "phone": "02563.813.814", "lat": "", "lng": ""}, {"district_code": "binh-dinh", "name": "CHTT B\u00ccNH \u0110\u1ecaNH 2", "district": "Th\u00e0nh ph\u1ed1 Quy Nh\u01a1n", "address": "314A Nguy\u1ec5n Th\u00e1i H\u1ecdc, TP Quy Nh\u01a1n, B\u00ecnh \u0110\u1ecbnh", "opening_hours": "", "phone": "02563.352.353", "lat": "", "lng": ""}, {"district_code": "binh-dinh", "name": "CHTT AN NH\u01a0N", "district": "Th\u1ecb x\u00e3 An Nh\u01a1n", "address": "202 Tr\u1ea7n Ph\u00fa, TX.An Nh\u01a1n - B\u00ecnh \u0110\u1ecbnh", "opening_hours": "", "phone": "02563.635.815", "lat": "", "lng": ""}, {"district_code": "binh-phuoc", "name": "CHTT \u0110\u1ed3ng Xo\u00e0i - B\u00ecnh Ph\u01b0\u1edbc", "district": "Th\u1ecb x\u00e3 \u0110\u1ed3ng Xo\u00e0i", "address": "972 \u0110\u01b0\u1eddng Ph\u00fa Ri\u1ec1ng \u0110\u1ecf, T\u1ed5 2, Khu Ph\u1ed1 Ph\u01b0\u1edbc Th\u1ecd, Ph\u01b0\u1eddng T\u00e2n Thi\u1ec7n, Th\u1ecb X\u00e3 \u0110\u1ed3ng Xo\u00e0i, T\u1ec9nh B\u00ecnh Ph\u01b0\u1edbc, Vi\u1ec7t Nam.", "opening_hours": "", "phone": "0271.3870.079", "lat": "", "lng": ""}, {"district_code": "binh-thuan", "name": "CHTT Phan Thi\u1ebft", "district": "Th\u00e0nh ph\u1ed1 Phan Thi\u1ebft", "address": "177 - 179 Tr\u1ea7n H\u01b0ng \u0110\u1ea1o, P.Ph\u00fa Th\u1ee7y, TP.Phan Thi\u1ebft, T\u1ec9nh B\u00ecnh Thu\u1eadn", "opening_hours": "", "phone": "252.3828268", "lat": "", "lng": ""}, {"district_code": "ca-mau", "name": "CHTT C\u00c0 MAU 1", "district": "Th\u00e0nh ph\u1ed1 C\u00e0 Mau", "address": "53A, Tr\u1ea7n H\u01b0ng \u0110\u1ea1o, P.5, TP. C\u00e0 Mau", "opening_hours": "", "phone": "02903.825.906", "lat": "", "lng": ""}, {"district_code": "ca-mau", "name": "CHTT PH\u01af\u1edcNG 8- C\u00c0 MAU", "district": "Th\u00e0nh ph\u1ed1 C\u00e0 Mau", "address": "187F Nguy\u1ec5n T\u1ea5t Th\u00e0nh, Kh\u00f3m 1, Ph\u01b0\u1eddng 8, Tp. C\u00e0 Mau, T\u1ec9nh C\u00e0 Mau", "opening_hours": "", "phone": "02903.660.778", "lat": "", "lng": ""}, {"district_code": "ca-mau", "name": "CH N\u0103m C\u0103n - C\u00e0 Mau", "district": "Huy\u1ec7n N\u0103m C\u0103n", "address": "S\u1ed1 155, Khu v\u1ef1c 1, Kh\u00f3m 2, Th\u1ecb tr\u1ea5n N\u0103m C\u0103n, huy\u1ec7n N\u0103m C\u0103n, T\u1ec9nh C\u00e0 Mau", "opening_hours": "", "phone": "", "lat": "", "lng": ""}, {"district_code": "can-tho", "name": "CHTT PHAN \u0110\u00ccNH PH\u00d9NG", "district": "Th\u00e0nh ph\u1ed1 C\u1ea7n Th\u01a1", "address": "100 Phan \u0110\u00ecnh Ph\u00f9ng,P.An L\u1ea1c, Q. Ninh Ki\u1ec1u, TP C\u1ea7n Th\u01a1", "opening_hours": "", "phone": "02923.827.014", "lat": "", "lng": ""}, {"district_code": "can-tho", "name": "CHTT NGUY\u1ec4N TR\u00c3I", "district": "Th\u00e0nh ph\u1ed1 C\u1ea7n Th\u01a1", "address": "S\u1ed0 02A Nguy\u1ec5n Tr\u00e3i,  P. C\u00e1i Kh\u1ebf, QNK Ki\u1ec1u, TP C\u1ea7n Th\u01a1", "opening_hours": "", "phone": "02923.769.027", "lat": "", "lng": ""}, {"district_code": "can-tho", "name": "CHTT TH\u1ed0T N\u1ed0T", "district": "Th\u00e0nh ph\u1ed1 C\u1ea7n Th\u01a1", "address": "L\u00f4 06 TTTM-P. Th\u1ed1t N\u1ed1t, Q. Th\u1ed1t N\u1ed1t, TP C\u1ea7n Th\u01a1", "opening_hours": "", "phone": "02923.851.618", "lat": "", "lng": ""}, {"district_code": "can-tho", "name": "CHTT XU\u00c2N KH\u00c1NH", "district": "Th\u00e0nh ph\u1ed1 C\u1ea7n Th\u01a1", "address": "97-97A, \u0110\u01b0\u1eddng 30/4, P. Xu\u00e2n Kh\u00e1nh,Q. Ninh Ki\u1ec1u, TP C\u1ea7n Th\u01a1", "opening_hours": "", "phone": "02926.277.999", "lat": "", "lng": ""}, {"district_code": "can-tho", "name": "CHTT CHI\u1ebeT KH\u1ea4U CAO", "district": "Th\u00e0nh ph\u1ed1 C\u1ea7n Th\u01a1", "address": "176 Tr\u1ea7n Quang Di\u1ec7u, Ph\u01b0\u1eddng An Th\u1edbi, Qu\u1eadn B\u00ccnh Th\u1ee7y, TP C\u1ea7n Th\u01a1.", "opening_hours": "", "phone": "02923.880.848", "lat": "", "lng": ""}, {"district_code": "can-tho", "name": "CHTT \u00d4 M\u00d4N", "district": "Th\u00e0nh ph\u1ed1 C\u1ea7n Th\u01a1", "address": "07 \u0110\u01b0\u1eddng 26/3, Ph\u01b0\u1eddng Ch\u00e2u V\u0103n Li\u00eam, Qu\u1eadn \u00d4 M\u00f4n, Tp. C\u1ea7n Th\u01a1", "opening_hours": "", "phone": "02923.662.678", "lat": "", "lng": ""}, {"district_code": "can-tho", "name": "CHTT M\u1eacU TH\u00c2N", "district": "Th\u00e0nh ph\u1ed1 C\u1ea7n Th\u01a1", "address": "S\u1ed1 62-64-66 M\u1eadu Th\u00e2n, P. An H\u00f2a, Q. Ninh Ki\u1ec1u, TP. C\u1ea7n Th\u01a1", "opening_hours": "", "phone": "02923.868.373", "lat": "", "lng": ""}, {"district_code": "dak-nong", "name": "CHTT \u0110AKMIL", "district": "Th\u1ecb tr\u1ea5n \u0110\u0103kMil", "address": "65 Nguy\u1ec5n T\u1ea5t Th\u00e0nh, TT \u0110\u0103kMil, T\u1ec9nh \u0110\u0103k N\u00f4ng", "opening_hours": "", "phone": "02613.741.017", "lat": "", "lng": ""}, {"district_code": "dak-lak", "name": "CHTT \u0110AKLAK 1", "district": "Th\u00e0nh ph\u1ed1 Bu\u00f4n Ma Thu\u1ed9t", "address": "37 Nguy\u1ec5n T\u1ea5t Th\u00e0nh, P.T\u00e2n L\u1ee3i, TP Bu\u00f4n Ma Thu\u1ed9t, T. \u0110\u0103kL\u0103k", "opening_hours": "", "phone": "0262.953.793", "lat": "", "lng": ""}, {"district_code": "dak-lak", "name": "CHTT DAKLAK 2", "district": "Th\u00e0nh ph\u1ed1 Bu\u00f4n Ma Thu\u1ed9t", "address": "L\u00d4 D16_D17 Phan B\u1ed9i Ch\u00e2u, TP Bu\u00f4n Ma Thu\u1ed9t, T \u0110\u0103kL\u0103k", "opening_hours": "", "phone": "02623.988.579", "lat": "", "lng": ""}, {"district_code": "dak-lak", "name": "CHTT \u0110AKLAK 3", "district": "Th\u00e0nh ph\u1ed1 Bu\u00f4n Ma Thu\u1ed9t", "address": "465 L\u00ea Du\u1ea9n, P.Ea Tam, TP Bu\u00f4n Ma Thu\u1ed9t, T\u1ec9nh \u0110aklak", "opening_hours": "", "phone": "02623.510.779", "lat": "", "lng": ""}, {"district_code": "dak-lak", "name": "CHTT BU\u00d4N H\u1ed2 - \u0110AKLAK 4", "district": "Th\u1ecb x\u00e3 Bu\u00f4n H\u1ed3", "address": "01 Ho\u00e0ng Di\u1ec7u, P. An B\u00ecnh, Th\u1ecb X\u00e3 Bu\u00f4n H\u1ed3, T\u1ec9nh \u0110aklak", "opening_hours": "", "phone": "02623.798.889", "lat": "", "lng": ""}, {"district_code": "dak-lak", "name": "CHTT \u0110aklak 5", "district": "Huy\u1ec7n Krong Pak", "address": "KHU \u0110\u1ea4T TH\u1eca TR\u1ea4N PH\u01af\u1edaC AN - H. KR\u00d4NG P\u1eaeK - \u0110AKLAK", "opening_hours": "", "phone": "", "lat": "", "lng": ""}, {"district_code": "dien-bien", "name": "CHTT \u0110i\u1ec7n Bi\u00ean", "district": "Th\u00e0nh ph\u1ed1 \u0110i\u1ec7n Bi\u00ean", "address": "661 V\u00f5 Nguy\u00ean Gi\u00e1p , t\u1ed5 d\u00e2n ph\u1ed1 9, P T\u00e2n Thanh, TP \u0110i\u1ec7n Bi\u00ean", "opening_hours": "", "phone": "0215.655.1888", "lat": "", "lng": ""}, {"district_code": "dong-nai", "name": "CHTT Bi\u00ean Ho\u00e0", "district": "Th\u00e0nh ph\u1ed1 Bi\u00ean H\u00f2a", "address": "1/1  Ph\u1ea1m V\u0103n Thu\u1eadn, TP.Bi\u00ean H\u00f2a, T\u1ec9nh \u0110\u1ed3ng Nai", "opening_hours": "", "phone": "02513.913.604", "lat": "", "lng": ""}, {"district_code": "dong-nai", "name": "CHTT 30/4 Bi\u00ean H\u00f2a", "district": "Th\u00e0nh ph\u1ed1 Bi\u00ean H\u00f2a", "address": "1B/1B 4A \u0110\u01b0\u1eddng 30.4, P.Thanh B\u00ecnh, TP.Bi\u00ean H\u00f2a, T\u1ec9nh \u0110\u1ed3ng Nai", "opening_hours": "", "phone": "0251.3842.556", "lat": "", "lng": ""}, {"district_code": "dong-nai", "name": "CHTT Long Kh\u00e1nh", "district": "Th\u1ecb x\u00e3 Long Kh\u00e1nh", "address": "19 H\u00f9ng V\u01b0\u01a1ng, TX.Long Kh\u00e1nh, T\u1ec9nh \u0110\u1ed3ng Nai", "opening_hours": "", "phone": "02513.646.727", "lat": "", "lng": ""}, {"district_code": "dong-thap", "name": "CHTT SA \u0110\u00c9C", "district": "Th\u00e0nh ph\u1ed1 Sa \u0110\u00e9c", "address": "11 Tr\u1ea7n H\u01b0ng \u0110\u1ea1o, kh\u00f3m 1, ph\u01b0\u1eddng 2,TP.Sa \u0110\u00e9c", "opening_hours": "", "phone": "02773.770.267", "lat": "", "lng": ""}, {"district_code": "dong-thap", "name": "CHTT CAO L\u00c3NH", "district": "Th\u00e0nh ph\u1ed1 Cao L\u00e3nh", "address": "32 \u0110\u1ed1c Binh Ki\u1ec1u , P2, TP.Cao L\u00e3nh", "opening_hours": "", "phone": "02776.52.53.54", "lat": "", "lng": ""}, {"district_code": "dong-thap", "name": "CHTT M\u1ef8 AN", "district": "Huy\u1ec7n Th\u00e1p M\u01b0\u1eddi", "address": "25/27, Tr\u1ea7n Ph\u00fa, th\u1ecb tr\u1ea5n M\u1ef9 An, huy\u1ec7n Th\u00e1p  M\u01b0\u1eddi, t\u1ec9nh \u0110\u1ed3ng Th\u00e1p", "opening_hours": "", "phone": "02773.895.979", "lat": "", "lng": ""}, {"district_code": "dong-thap", "name": "CHTT H\u1ed2NG NG\u1ef0", "district": "Th\u1ecb x\u00e3 H\u1ed3ng Ng\u1ef1", "address": "61-63 Tr\u1ea7n H\u01b0ng \u0110\u1ea1o, Ph\u01b0\u1eddng An Th\u1ea1nh, TX. H\u1ed3ng Ng\u1ef1, t\u1ec9nh \u0110\u1ed3ng Th\u00e1p", "opening_hours": "", "phone": "02773.525.858", "lat": "", "lng": ""}, {"district_code": "gia-lai", "name": "CHTT GIA LAI 2", "district": "Th\u00e0nh ph\u1ed1 Pleiku", "address": "44-46 Nguy\u1ec5n Thi\u1ec7n Thu\u1eadt, TP Pleiku, Gia Lai", "opening_hours": "", "phone": "02696.250.112", "lat": "", "lng": ""}, {"district_code": "gia-lai", "name": "CHTT GIA LAI", "district": "Th\u00e0nh ph\u1ed1 Pleiku", "address": "106 Phan \u0110\u00ecnh Ph\u00f9ng, TP Pleiku, Gia Lai", "opening_hours": "", "phone": "02696.251.679", "lat": "", "lng": ""}, {"district_code": "gia-lai", "name": "CHTT Gia Lai 3", "district": "Th\u1ecb x\u00e3 An Kh\u00ea", "address": "361 QUANG TRUNG - Th\u1ecb x\u00e3 AN KH\u00ca - GIA LAI", "opening_hours": "", "phone": "0269.3.532.233", "lat": "", "lng": ""}, {"district_code": "ha-khau", "name": "CHTT H\u00e0 Kh\u1ea9u - V\u00e2n Nam", "district": "Huy\u1ec7n H\u00e0 Kh\u1ea9u - Trung Qu\u1ed1c", "address": "S\u1ed1 04, L\u1ea7u C,d\u00e3y ph\u1ed1 Qu\u1ea3ng Linh,Khu ph\u1ed1 \u0111i b\u1ed9 Huy\u1ec7n H\u00e0 Kh\u1ea9u, T\u1ec9nh V\u00e2n Nam, Trung Qu\u1ed1c", "opening_hours": "", "phone": "", "lat": "", "lng": ""}, {"district_code": "ha-tinh", "name": "CHTT H\u00c0 T\u0128NH", "district": "Th\u00e0nh ph\u1ed1 H\u00e0 T\u0129nh", "address": "41 H\u00e0 Huy T\u1eadp - TP H\u00e0 T\u0129nh", "opening_hours": "", "phone": "2393797668", "lat": "", "lng": ""}, {"district_code": "hai-phong", "name": "CHTT 201 T\u00f4 Hi\u1ec7u", "district": "Th\u00e0nh ph\u1ed1 H\u1ea3i Ph\u00f2ng", "address": "201 \u0110\u01b0\u1eddng T\u00f4 Hi\u1ec7u, Qu\u1eadn L\u00ea Ch\u00e2n, H\u1ea3i Ph\u00f2ng", "opening_hours": "", "phone": "0225.384.3326", "lat": "", "lng": ""}, {"district_code": "hai-phong", "name": "CHTT 40 Nguy\u1ec5n \u0110\u1ee9c C\u1ea3nh", "district": "Th\u00e0nh ph\u1ed1 H\u1ea3i Ph\u00f2ng", "address": "40 Nguy\u1ec5n \u0110\u1ee9c C\u1ea3nh, Q. L\u00ea Ch\u00e2n, H\u1ea3i Ph\u00f2ng", "opening_hours": "", "phone": "0225.3738.105", "lat": "", "lng": ""}, {"district_code": "hau-giang", "name": "CHTT C\u00c1I T\u1eaeC", "district": "Huy\u1ec7n Ch\u00e2u Th\u00e0nh", "address": "4-6 \u1ea4p T\u00e2n Ph\u00fa, Th\u1ecb tr\u1ea5n C\u00e1i T\u1eafc, Huy\u1ec7n Ch\u00e2u Th\u00e0nh A, T\u1ec9nh H\u1eadu Giang", "opening_hours": "", "phone": "02933.953.358", "lat": "", "lng": ""}, {"district_code": "hau-giang", "name": "CHTT H\u1eacU GIANG", "district": "Th\u00e0nh ph\u1ed1 V\u1ecb Thanh", "address": "15 Nguy\u1ec5n Th\u00e1i H\u1ecdc, Ph\u01b0\u1eddng 1, Tp. V\u1ecb Thanh, T\u1ec9nh H\u1eadu Giang", "opening_hours": "", "phone": "02933.877.819", "lat": "", "lng": ""}, {"district_code": "hue", "name": "CHTT HU\u1ebe 1", "district": "Th\u00e0nh ph\u1ed1 Hu\u1ebf", "address": "165 H\u00f9ng V\u01b0\u01a1ng -Tp Hu\u1ebf", "opening_hours": "", "phone": "2343933256", "lat": "", "lng": ""}, {"district_code": "hue", "name": "CHTT HU\u1ebe 2", "district": "Th\u00e0nh ph\u1ed1 Hu\u1ebf", "address": "50 B\u1ebfn Ngh\u00e9- Tp Hu\u1ebf", "opening_hours": "", "phone": "2343676799", "lat": "", "lng": ""}, {"district_code": "hue", "name": "CHTT HU\u1ebe 3", "district": "Th\u00e0nh ph\u1ed1 Hu\u1ebf", "address": "207 Tr\u1ea7n H\u01b0ng \u0110\u1ea1o -Tp Hu\u1ebf", "opening_hours": "", "phone": "2343511868", "lat": "", "lng": ""}, {"district_code": "kien-giang", "name": "CHTT R\u1ea0CH GI\u00c1", "district": "Th\u00e0nh ph\u1ed1 R\u1ea1ch Gi\u00e1", "address": "23 Nguy\u1ec5n Trung Tr\u1ef1c, P. V\u0129nh B\u1ea3o -TP R\u1ea1ch Gi\u00e1, Ki\u00ean Giang", "opening_hours": "", "phone": "02973.929.897", "lat": "", "lng": ""}, {"district_code": "kien-giang", "name": "CHTT R\u1ea0CH S\u1eceI", "district": "Th\u00e0nh ph\u1ed1 R\u1ea1ch Gi\u00e1", "address": "37 Mai Th\u1ecb H\u1ed3ng H\u1ea1nh,  ph\u01b0\u1eddng V\u0129nh L\u1ee3i, TP R\u1ea1ch Gi\u00e1, Ki\u00ean Giang", "opening_hours": "", "phone": "02973.929.899", "lat": "", "lng": ""}, {"district_code": "kien-giang", "name": "CHTT TR\u1ea6N PH\u00da", "district": "Th\u00e0nh ph\u1ed1 R\u1ea1ch Gi\u00e1", "address": "159 Tr\u1ea7n Ph\u00fa, Ph\u01b0\u1eddng V\u0129nh Thanh, Tp. R\u1ea1ch Gi\u00e1, T\u1ec9nh Ki\u00ean Giang", "opening_hours": "", "phone": "02973.929.879", "lat": "", "lng": ""}, {"district_code": "kon-tum", "name": "CHTT KONTUM", "district": "Th\u00e0nh ph\u1ed1 Kon Tum", "address": "274 Tr\u1ea7n H\u01b0ng \u0110\u1ea1o, TP Kon Tum", "opening_hours": "", "phone": "02603.865.123", "lat": "", "lng": ""}, {"district_code": "khanh-hoa", "name": "CHTT NHA TRANG 1", "district": "Th\u00e0nh ph\u1ed1 Nha Trang", "address": "145 Th\u1ed1ng Nh\u1ea5t, TP Nha Trang ,T\u1ec9nh Kh\u00e1nh H\u00f2a", "opening_hours": "", "phone": "0258.3821.774", "lat": "", "lng": ""}, {"district_code": "khanh-hoa", "name": "CHTT NHA TRANG 2", "district": "Th\u00e0nh ph\u1ed1 Nha Trang", "address": "06 Ng\u00f4 Gia T\u1ef1, TP  Nha Trang ,T\u1ec9nh Kh\u00e1nh H\u00f2a", "opening_hours": "", "phone": "02583.511.958", "lat": "", "lng": ""}, {"district_code": "khanh-hoa", "name": "CHTT NINH H\u00d2A", "district": "Th\u1ecb x\u00e3 Ninh H\u00f2a", "address": "313 Tr\u1ea7n Qu\u00fd C\u00e1p-TDP6- TX.Ninh H\u00f2a- T\u1ec9nh Kh\u00e1nh H\u00f2a", "opening_hours": "", "phone": "02583.632.668", "lat": "", "lng": ""}, {"district_code": "khanh-hoa", "name": "CHTT Nha Trang 3", "district": "Th\u00e0nh ph\u1ed1 Nha Trang", "address": "142 \u0111\u01b0\u1eddng 2 th\u00e1ng 4, P. V\u1ea1n Th\u00e0nh, TP. Nha Trang, T\u1ec9nh Kh\u00e1nh H\u00f2a", "opening_hours": "", "phone": "0258.23.811.775", "lat": "", "lng": ""}, {"district_code": "lang-son", "name": "CHTT 83 L\u00ea L\u1ee3i - L\u1ea1ng S\u01a1n", "district": "Th\u00e0nh ph\u1ed1 L\u1ea1ng S\u01a1n", "address": "S\u1ed1 83, \u0110\u01b0\u1eddng L\u00ea L\u1ee3i, P.V\u0129nh Tr\u1ea1i, Tp.L\u1ea1ng S\u01a1n,T.L\u1ea1ng S\u01a1n", "opening_hours": "", "phone": "02052.488.368", "lat": "", "lng": ""}, {"district_code": "lao-cai", "name": "CHTT L\u00e0o Cai 1", "district": "Th\u00e0nh ph\u1ed1 L\u00e0o Cai", "address": "s\u1ed1 48, \u0111\u01b0\u1eddng Nguy\u1ec5n Hu\u1ec7, P.L\u00e0o Cai, TP L\u00e0o Cai, t\u1ec9nh L\u00e0o Cai", "opening_hours": "", "phone": "0214.224.0689", "lat": "", "lng": ""}, {"district_code": "lao-cai", "name": "CHTT L\u00e0o Cai 2", "district": "Th\u00e0nh ph\u1ed1 L\u00e0o Cai", "address": "S\u1ed1 79 Nguy\u1ec5n Du, P Kim T\u00e2n, TP L\u00e0o Cai, t\u1ec9nh L\u00e0o Cai", "opening_hours": "", "phone": "0214.383.5889", "lat": "", "lng": ""}, {"district_code": "lam-dong", "name": "CHTT \u0110\u1ee8C TR\u1eccNG", "district": "Huy\u1ec7n \u0110\u1ee9c Tr\u1ecdng", "address": "69 Tr\u1ea7n H\u01b0ng \u0110\u1ea1o,TT Li\u00ean Ngh\u0129a, H.\u0110\u1ee9c Tr\u1ecdng, T.L\u00e2m \u0110\u1ed3ng", "opening_hours": "", "phone": "02633.645.939", "lat": "", "lng": ""}, {"district_code": "lam-dong", "name": "CHTT B\u1ea2O L\u1ed8C", "district": "Th\u00e0nh ph\u1ed1 B\u1ea3o L\u1ed9c", "address": "139, Phan B\u1ed9i Ch\u00e2u, khu 5, TP.B\u1ea3o L\u1ed9c, L\u00e2m \u0110\u1ed3ng", "opening_hours": "", "phone": "02633.710.202", "lat": "", "lng": ""}, {"district_code": "lam-dong", "name": "CHTT \u0110\u00c0 L\u1ea0T 1", "district": "Th\u00e0nh ph\u1ed1 \u0110\u00e0 L\u1ea1t", "address": "65 \u0111\u01b0\u1eddng 3/2, \u0110\u00e0 L\u1ea1t, L\u00e2m \u0110\u1ed3ng", "opening_hours": "", "phone": "02633.510.050", "lat": "", "lng": ""}, {"district_code": "lam-dong", "name": "CHTT \u0110\u00c0 L\u1ea0T 2", "district": "Th\u00e0nh ph\u1ed1 \u0110\u00e0 L\u1ea1t", "address": "228 Phan \u0110\u00ecnh Ph\u00f9ng, P2, \u0110\u00e0 L\u1ea1t, L\u00e2m \u0110\u1ed3ng", "opening_hours": "", "phone": "02603 865.123", "lat": "", "lng": ""}, {"district_code": "lam-dong", "name": "CHTT DI LINH", "district": "Huy\u1ec7n Di Linh", "address": "1080 H\u00f9ng V\u01b0\u01a1ng, T\u1ed5 7, P.L\u1ed9c Ti\u1ebfn,  T\u1ec9nh L\u00e2m \u0110\u1ed3ng", "opening_hours": "", "phone": "02633.778.990", "lat": "", "lng": ""}, {"district_code": "lam-dong", "name": "CHTT L\u00c2M H\u00c0", "district": "Huy\u1ec7n L\u00e2m H\u00e0", "address": "766 H\u00f9ng V\u01b0\u01a1ng, \u0110inh V\u0103n, L\u00e2m H\u00e0, L\u00e2m \u0110\u1ed3ng", "opening_hours": "", "phone": "02633.685.939", "lat": "", "lng": ""}, {"district_code": "long-an", "name": "CHTT T\u00e2n An - Long An", "district": "Th\u00e0nh ph\u1ed1 T\u00e2n An", "address": "S\u1ed1 131, Qu\u1ed1c L\u1ed9 1A, Ph\u01b0\u1eddng 2, TP.T\u00e2n An, T\u00ecnh Long An", "opening_hours": "", "phone": "0272.391.2233", "lat": "", "lng": ""}, {"district_code": "long-an", "name": "CHTT B\u1ebfn L\u1ee9c - Long An", "district": "Th\u1ecb tr\u1ea5n B\u1ebfn L\u1ee9c", "address": "37 Nguy\u1ec5n H\u1eefu Th\u1ecd, Khu Ph\u1ed1 3, Th\u1ecb Tr\u1ea5n B\u1ebfn L\u1ee9c, Huy\u1ec7n B\u1ebfn L\u1ee9c, T\u1ec9nh Long An", "opening_hours": "", "phone": "0272.364.73.94", "lat": "", "lng": ""}, {"district_code": "nam-dinh", "name": "CHTT 7+9 H\u00e0ng Ti\u1ec7n - Nam \u0110\u1ecbnh", "district": "Th\u00e0nh ph\u1ed1 Nam \u0110\u1ecbnh", "address": "S\u1ed1 7+9 \u0111\u01b0\u1eddng H\u00e0ng Ti\u1ec7n, P.B\u00e0 Tri\u1ec7u, TP. Nam \u0110\u1ecbnh,T.Nam \u0110\u1ecbnh", "opening_hours": "", "phone": "0228.654.2888", "lat": "", "lng": ""}, {"district_code": "nam-dinh", "name": "CHTT 84 Hai B\u00e0 Tr\u01b0ng - Nam \u0110\u1ecbnh", "district": "Th\u00e0nh ph\u1ed1 Nam \u0110\u1ecbnh", "address": "84 Hai B\u00e0 Tr\u01b0ng - Tr\u1ea7n H\u01b0ng \u0110\u1ea1o - TP Nam \u0110\u1ecbnh", "opening_hours": "", "phone": "0228.655.5955", "lat": "", "lng": ""}, {"district_code": "ninh-binh", "name": "CHTT 1040 Tr\u1ea7n H\u01b0ng \u0110\u1ea1o - Ninh B\u00ecnh", "district": "Th\u00e0nh ph\u1ed1 Ninh B\u00ecnh", "address": "1040 Tr\u1ea7n H\u01b0ng \u0110\u1ea1o - Ph\u00fac Th\u00e0nh - TP Ninh B\u00ecnh", "opening_hours": "", "phone": "0229.3888.229", "lat": "", "lng": ""}, {"district_code": "ninh-thuan", "name": "CHTT PHAN RANG", "district": "Th\u00e0nh ph\u1ed1 Phan Rang", "address": "299 Th\u1ed1ng Nh\u1ea5t, Thanh S\u01a1n, TP Phan Rang, Ninh Thu\u1eadn", "opening_hours": "", "phone": "0259.82.17.18", "lat": "", "lng": ""}, {"district_code": "nghe-an", "name": "CHTT VINH", "district": "Th\u00e0nh ph\u1ed1 Vinh", "address": "316 Nguy\u1ec5n V\u0103n C\u1eeb - Tp Vinh", "opening_hours": "", "phone": "2383858567", "lat": "", "lng": ""}, {"district_code": "nghe-an", "name": "CHTT VINH 2", "district": "Th\u00e0nh ph\u1ed1 Vinh", "address": "187 L\u00ea L\u1ee3i - TP Vinh - Ngh\u1ec7 An", "opening_hours": "", "phone": "2383686234", "lat": "", "lng": ""}, {"district_code": "phu-tho", "name": "CHTT 1851 H\u00f9ng V\u01b0\u01a1ng - Ph\u00fa Th\u1ecd", "district": "Th\u00e0nh ph\u1ed1 Vi\u1ec7t Tr\u00ec", "address": "S\u1ed1 1851 \u0110\u1ea1i L\u1ed9 H\u00f9ng V\u01b0\u01a1ng \u2013 P. Gia C\u1ea9m \u2013 TP Vi\u1ec7t Tr\u00ec \u2013 T\u1ec9nh Ph\u00fa Th\u1ecd", "opening_hours": "", "phone": "0210.362.8555", "lat": "", "lng": ""}, {"district_code": "phu-yen", "name": "CHTT PH\u00da Y\u00caN", "district": "Th\u00e0nh ph\u1ed1 Tuy H\u00f2a", "address": "263 Tr\u1ea7n H\u01b0ng \u0110\u1ea1o, P4, TP Tuy H\u00f2a, T\u1ec9nh Ph\u00fa Y\u00ean", "opening_hours": "", "phone": "2573.823766", "lat": "", "lng": ""}, {"district_code": "quang-binh", "name": "CHTT QU\u1ea2NG B\u00ccNH 1", "district": "Th\u00e0nh ph\u1ed1 \u0110\u1ed3ng H\u1edbi", "address": "107 T\u1ed1 H\u1eefu - TP \u0110\u1ed3ng H\u1edbi - Qu\u1ea3ng B\u00ecnh", "opening_hours": "", "phone": "2323533899", "lat": "", "lng": ""}, {"district_code": "quang-binh", "name": "CHTT QU\u1ea2NG B\u00ccNH 2", "district": "Th\u00e0nh ph\u1ed1 \u0110\u1ed3ng H\u1edbi", "address": "01 M\u1eb9 Su\u1ed1t - P.H\u1ea3i \u0110\u1ecbnh- TP \u0110\u1ed3ng Th\u1edbi- Qu\u1ea3ng B\u00ecnh", "opening_hours": "", "phone": "2323533366", "lat": "", "lng": ""}, {"district_code": "quang-nam", "name": "CHTT TAM K\u1ef2 1", "district": "Th\u00e0nh ph\u1ed1 Tam K\u1ef3", "address": "Si\u00eau th\u1ecb Coop Tam k\u1ef3, TP Tam K\u1ef3, T\u1ec9nh Qu\u1ea3ng Nam", "opening_hours": "", "phone": "2353820350", "lat": "", "lng": ""}, {"district_code": "quang-nam", "name": "CHTT TAM K\u1ef2 2", "district": "Th\u00e0nh ph\u1ed1 Tam K\u1ef3", "address": "359 Phan Chu Trinh - TP Tam K\u1ef3, T\u1ec9nh Qu\u1ea3ng Nam", "opening_hours": "", "phone": "2353555268", "lat": "", "lng": ""}, {"district_code": "quang-ninh", "name": "CHTT C\u1ea9m Ph\u1ea3", "district": "Th\u00e0nh ph\u1ed1 C\u1ea9m Ph\u1ea3", "address": "227 Tr\u1ea7n Ph\u00fa, P C\u1ea9m B\u00ecnh, TP C\u1ea9m Ph\u1ea3, t\u1ec9nh Qu\u1ea3ng Ninh", "opening_hours": "", "phone": "0203.627.4897", "lat": "", "lng": ""}, {"district_code": "quang-ninh", "name": "CHTT M\u00f3ng C\u00e1i", "district": "Th\u00e0nh ph\u1ed1 M\u00f3ng C\u00e1i", "address": "S\u1ed1 41 Tr\u1ea7n Ph\u00fa \u2013 P. Tr\u1ea7n Ph\u00fa \u2013 TP M\u00f3ng C\u00e1i \u2013 T\u1ec9nh Qu\u1ea3ng Ninh", "opening_hours": "", "phone": "0203.627.5111", "lat": "", "lng": ""}, {"district_code": "quang-ninh", "name": "CHTT 81 Nguy\u1ec5n V\u0103n C\u1eeb-H\u1ea1 Long", "district": "Th\u00e0nh ph\u1ed1 H\u1ea1 Long", "address": "81 Nguy\u1ec5n V\u0103n C\u1eeb, TP H\u1ea1 Long, t\u1ec9nh Qu\u1ea3ng Ninh", "opening_hours": "", "phone": "0203.650.0292", "lat": "", "lng": ""}, {"district_code": "quang-ngai", "name": "CHTT QU\u1ea2NG NG\u00c3I", "district": "Th\u00e0nh ph\u1ed1 Qu\u1ea3ng Ng\u00e3i", "address": "202-204 Quang Trung - TP Qu\u00e3ng Ng\u00e3i", "opening_hours": "", "phone": "2556262668", "lat": "", "lng": ""}, {"district_code": "quang-tri", "name": "CHTT QU\u1ea2NG TR\u1eca", "district": "Th\u00e0nh ph\u1ed1 Qu\u1ea3ng Tr\u1ecb", "address": "12 H\u00f9ng V\u01b0\u01a1ng -  TP Qu\u1ea3ng Tr\u1ecb", "opening_hours": "", "phone": "2333579799", "lat": "", "lng": ""}, {"district_code": "soc-trang", "name": "CHTT S\u00d3C TR\u0102NG", "district": "Th\u00e0nh ph\u1ed1 S\u00f3c Tr\u0103ng", "address": "95(27)-H\u00f9ng V\u01b0\u01a1ng K1- P6-TP S\u00f3c Tr\u0103ng - T\u1ec9nh S\u00f3c Tr\u0103ng", "opening_hours": "", "phone": "02993.828.879", "lat": "", "lng": ""}, {"district_code": "son-la", "name": "CHTT S\u01a1n La", "district": "Th\u00e0nh ph\u1ed1 S\u01a1n La", "address": "S\u00f4 39, \u0111\u01b0\u1eddng L\u00f2 V\u0103n Gi\u00e1, P Chi\u1ec1ng L\u00ea, TP S\u01a1n La", "opening_hours": "", "phone": "0212.627.0960", "lat": "", "lng": ""}, {"district_code": "tay-ninh", "name": "CHTT T\u00e2y Ninh", "district": "Th\u00e0nh ph\u1ed1 T\u00e2y Ninh", "address": "667B C\u00e1nh M\u1ea1ng Th\u00e1ng 8, TP.T\u00e2y Ninh, T\u1ec9nh T\u00e2y Ninh", "opening_hours": "", "phone": "02763 922 427", "lat": "", "lng": ""}, {"district_code": "tien-giang", "name": "CHTT G\u00f2 C\u00f4ng", "district": "Th\u1ecb x\u00e3 G\u00f2 C\u00f4ng", "address": "11A Hai B\u00e0 Tr\u01b0ng, KP1, P.1, TX.G\u00f2 C\u00f4ng, T\u1ec9nh Ti\u1ec1n Giang", "opening_hours": "", "phone": "0273 3510 818", "lat": "", "lng": ""}, {"district_code": "tien-giang", "name": "CHTT M\u1ef9 Tho", "district": "Th\u00e0nh ph\u1ed1 M\u1ef9 Tho", "address": "40A \u1ea4p B\u1eafc, P.5, TP.M\u1ef9 Tho, T\u1ec9nh Ti\u1ec1n Giang", "opening_hours": "", "phone": "273.3979697", "lat": "", "lng": ""}, {"district_code": "tuyen-quang", "name": "CHTT Tuy\u00ean Quang", "district": "Th\u00e0nh ph\u1ed1 Tuy\u00ean Quang", "address": "S\u1ed1 219 Quang Trung- p.T\u00e2n Quang- TP.Tuy\u00ean Quang- Tuy\u00ean Quang", "opening_hours": "", "phone": "0207.220.9889", "lat": "", "lng": ""}, {"district_code": "thai-binh", "name": "CHTT Th\u00e1i B\u00ecnh", "district": "Th\u00e0nh ph\u1ed1 Th\u00e1i B\u00ecnh", "address": "235 L\u00ea Qu\u00fd \u0110\u00f4n, TP Th\u00e1i B\u00ecnh, T\u1ec9nh Th\u00e1i B\u00ecnh", "opening_hours": "", "phone": "02276.519.789", "lat": "", "lng": ""}, {"district_code": "thai-nguyen", "name": "CHTT 209 L\u01b0\u01a1ng Ng\u1ecdc Quy\u1ebfn", "district": "Th\u00e0nh ph\u1ed1 Th\u00e1i Nguy\u00ean", "address": "S\u1ed1 nh\u00e0 209 Ph\u01b0\u1eddng Ho\u00e0ng V\u0103n Th\u1ee5- TP. Th\u00e1i Nguy\u00ean- T\u1ec9nh Th\u00e1i Nguy\u00ean", "opening_hours": "", "phone": "02083.855.156 ", "lat": "", "lng": ""}, {"district_code": "thai-nguyen", "name": "CHTT 540 L\u01b0\u01a1ng Ng\u1ecdc Quy\u1ebfn", "district": "Th\u00e0nh ph\u1ed1 Th\u00e1i Nguy\u00ean", "address": "S\u1ed1 nh\u00e0 540 Ph\u01b0\u1eddng Ho\u00e0ng V\u0103n Th\u1ee5- TP. Th\u00e1i Nguy\u00ean- T\u1ec9nh Th\u00e1i Nguy\u00ean", "opening_hours": "", "phone": "0208.385.5316", "lat": "", "lng": ""}, {"district_code": "thanh-hoa", "name": "CHTT THANH H\u00d3A 1", "district": "Th\u00e0nh ph\u1ed1 Thanh H\u00f3a", "address": "01 \u0110\u1ea1i l\u1ed9 L\u00ea L\u1ee3i-TP. Thanh H\u00f3a", "opening_hours": "", "phone": "2373729268", "lat": "", "lng": ""}, {"district_code": "thanh-hoa", "name": "CHTT THANH H\u00d3A 2", "district": "Th\u1ecb x\u00e3 S\u1ea7m S\u01a1n", "address": "Kiot 9,10 Ch\u1ee3 c\u1ed9t \u0111\u1ecf, P.Tr\u01b0\u1eddng S\u01a1n, TX.S\u1ea7m S\u01a1n, Thanh H\u00f3a", "opening_hours": "", "phone": "2373826181", "lat": "", "lng": ""}, {"district_code": "tra-vinh", "name": "CHTT TR\u00c0 VINH", "district": "Th\u00e0nh ph\u1ed1 Tr\u00e0 Vinh", "address": "711, \u0110BP, Kh\u00f3m 5, P.6, TP Tr\u00e0 Vinh", "opening_hours": "", "phone": "02943.860.868", "lat": "", "lng": ""}, {"district_code": "vinh-long", "name": "CHTT V\u0128NH LONG", "district": "Th\u00e0nh ph\u1ed1 V\u0129nh Long", "address": "S\u00f4\u0301 30 \u0110\u01b0\u01a1\u0300ng 3/2, kho\u0301m L\u00ea V\u0103n Ta\u0301m, TP V\u0129nh Long", "opening_hours": "", "phone": "02703.880.988", "lat": "", "lng": ""}, {"district_code": "vinh-phuc", "name": "CHTT Coop V\u0129nh Ph\u00fac", "district": "Th\u00e0nh ph\u1ed1 V\u0129nh Y\u00ean", "address": "TTTM Soiva Plaza \u2013 \u0110\u01b0\u1eddng M\u00ea Linh \u2013 P.Khai Quang \u2013 TP.V\u0129nh Y\u00ean ", "opening_hours": "", "phone": "0211.372.7142", "lat": "", "lng": ""}, {"district_code": "vinh-phuc", "name": "CHTT 79 Ng\u00f4 Quy\u1ec1n", "district": "Th\u00e0nh ph\u1ed1 V\u0129nh Y\u00ean", "address": "79 Ng\u00f4 Quy\u1ec1n, TP V\u0129nh Y\u00ean, T\u1ec9nh V\u0129nh Ph\u00fac", "opening_hours": "", "phone": "0211.359.5979", "lat": "", "lng": ""}, {"district_code": "vinh-phuc", "name": "CHTT 26-28 H\u00f9ng V\u01b0\u01a1ng-V\u0129nh Ph\u00fac", "district": "Th\u00e0nh ph\u1ed1 V\u0129nh Y\u00ean", "address": "Nh\u00e0 24 \u0110\u01b0\u1eddng H\u00f9ng V\u01b0\u01a1ng, TP. V\u0129nh Y\u00ean, T\u1ec9nh V\u0129nh Ph\u00fac", "opening_hours": "", "phone": "0211.625.5588", "lat": "", "lng": ""}, {"district_code": "vinh-phuc", "name": "CHTT Ph\u00fac Y\u00ean", "district": "Th\u1ecb x\u00e3 Ph\u00fac Y\u00ean", "address": "18 Tr\u1ea7n H\u01b0ng \u0110\u1ea1o, th\u1ecb x\u00e3 Ph\u00fac Y\u00ean, T\u1ec9nh V\u0129nh Ph\u00fac", "opening_hours": "", "phone": "0211.629.5688", "lat": "", "lng": ""}, {"district_code": "vung-tau", "name": "CHTT V\u0169ng T\u00e0u 1", "district": "Th\u00e0nh ph\u1ed1 V\u0169ng T\u00e0u", "address": "199 Ba Cu, P.4, TP.V\u0169ng T\u00e0u. T\u1ec9nh BR-VT", "opening_hours": "", "phone": "2543532493", "lat": "", "lng": ""}, {"district_code": "vung-tau", "name": "CHTT V\u0169ng T\u00e0u 2", "district": "Th\u00e0nh ph\u1ed1 V\u0169ng T\u00e0u", "address": "165 L\u00ea H\u1ed3ng Phong, P.8, TP.V\u0169ng T\u00e0u, T\u1ec9nh BR-VT", "opening_hours": "", "phone": "0643.512.966", "lat": "", "lng": ""}, {"district_code": "vung-tau", "name": "CHTT B\u00e0 R\u1ecba", "district": "Th\u00e0nh ph\u1ed1 B\u00e0 R\u1ecba", "address": "170 Nguy\u1ec5n H\u1eefu Th\u1ecd, P.Ph\u01b0\u1edbc Trung, TP.B\u00e0 R\u1ecba, T\u1ec9nh BR-VT", "opening_hours": "", "phone": "02543.733.644", "lat": "", "lng": ""}, {"district_code": "vung-tau", "name": "CHTT Long H\u1ea3i", "district": "Huy\u1ec7n Long \u0110i\u1ec1n", "address": "34 T\u1ed5 2, \u00d4 1, Khu ph\u1ed1 H\u1ea3i B\u00ecnh, Huy\u1ec7n Long \u0110i\u1ec1n, T\u1ec9nh B\u00e0 R\u1ecba \u2013 V\u0169ng T\u00e0u", "opening_hours": "", "phone": "0254.3868.068", "lat": "", "lng": ""}]}